outfile.txt

Report Generated 2021.12.06 21:47:04 EST
Data for 2 days.

1 49278U 98067SX  21340.26775925  .00035872  00000+0  55492-3 0  9995
2 49278  51.6384 210.6882 0002468 302.6476  57.4277 15.53714705  8596
======================================================================

== SATELLITE PASS (Now + 733 minutes) ==
Time (EST)             Az (deg)   El (deg)
------------------------------------------
2021.12.07 10:00:49    175.88      10.05
2021.12.07 10:01:49    159.93      14.42
2021.12.07 10:02:49    138.08      17.06
2021.12.07 10:03:49    114.74      15.95
2021.12.07 10:04:49     96.16      12.07
2021.12.07 10:05:17     89.61       9.98

Pass Statistics
    Maximum Elevation:
2021.12.07 10:03:02    132.89      17.16


== SATELLITE PASS (Now + 828 minutes) ==
Time (EST)             Az (deg)   El (deg)
------------------------------------------
2021.12.07 11:36:00    247.84      10.10
2021.12.07 11:37:00    252.00      18.33
2021.12.07 11:38:00    261.93      33.08
2021.12.07 11:39:00    305.02      58.28
2021.12.07 11:40:00     25.50      44.38
2021.12.07 11:41:00     43.46      24.15
2021.12.07 11:42:00     49.43      13.61
2021.12.07 11:42:31     51.19       9.93

Pass Statistics
    Maximum Elevation:
2021.12.07 11:39:14    329.29      60.67


== SATELLITE PASS (Now + 926 minutes) ==
Time (EST)             Az (deg)   El (deg)
------------------------------------------
2021.12.07 13:13:44    299.25      10.02
2021.12.07 13:14:44    314.00      15.02
2021.12.07 13:15:44    335.79      18.98
2021.12.07 13:16:44      1.61      18.97
2021.12.07 13:17:44     23.33      15.01
2021.12.07 13:18:44     38.03      10.03
2021.12.07 13:18:45     38.23       9.95

Pass Statistics
    Maximum Elevation:
2021.12.07 13:16:14    348.71      19.60


== SATELLITE PASS (Now + 1024 minutes) ==
Time (EST)             Az (deg)   El (deg)
------------------------------------------
2021.12.07 14:51:11    321.90      10.03
2021.12.07 14:52:11    337.05      14.73
2021.12.07 14:53:11    358.70      18.17
2021.12.07 14:54:11     23.47      17.81
2021.12.07 14:55:11     44.11      13.98
2021.12.07 14:56:02     56.50       9.95

Pass Statistics
    Maximum Elevation:
2021.12.07 14:53:36      9.08      18.57


== SATELLITE PASS (Now + 1120 minutes) ==
Time (EST)             Az (deg)   El (deg)
------------------------------------------
2021.12.07 16:27:27    311.35      10.06
2021.12.07 16:28:27    317.34      17.92
2021.12.07 16:29:27    330.84      31.01
2021.12.07 16:30:27     12.87      48.49
2021.12.07 16:31:27     73.86      39.03
2021.12.07 16:32:27     95.36      22.67
2021.12.07 16:33:27    103.56      12.97
2021.12.07 16:33:53    105.68       9.98

Pass Statistics
    Maximum Elevation:
2021.12.07 16:30:40     28.47      49.60


== SATELLITE PASS (Now + 1217 minutes) ==
Time (EST)             Az (deg)   El (deg)
------------------------------------------
2021.12.07 18:04:22    277.55      10.00
2021.12.07 18:05:22    263.79      15.51
2021.12.07 18:06:22    241.94      20.45
2021.12.07 18:07:22    214.12      21.03
2021.12.07 18:08:22    190.52      16.59
2021.12.07 18:09:22    175.29      10.98
2021.12.07 18:09:34    173.04       9.92

Pass Statistics
    Maximum Elevation:
2021.12.07 18:06:58    225.36      21.54


== SATELLITE PASS (Now + 2216 minutes) ==
Time (EST)             Az (deg)   El (deg)
------------------------------------------
2021.12.08 10:44:00    229.73      10.07
2021.12.08 10:45:00    228.07      18.49
2021.12.08 10:46:00    223.60      34.32
2021.12.08 10:47:00    192.03      69.40
2021.12.08 10:48:00     71.79      49.37
2021.12.08 10:49:00     62.16      25.25
2021.12.08 10:50:00     59.56      14.02
2021.12.08 10:50:33     58.84       9.98

Pass Statistics
    Maximum Elevation:
2021.12.08 10:47:15    145.91      75.86


== SATELLITE PASS (Now + 2314 minutes) ==
Time (EST)             Az (deg)   El (deg)
------------------------------------------
2021.12.08 12:21:17    285.89      10.00
2021.12.08 12:22:17    298.89      15.93
2021.12.08 12:23:17    320.47      21.96
2021.12.08 12:24:17    350.33      23.74
2021.12.08 12:25:17     16.88      19.19
2021.12.08 12:26:17     33.76      12.94
2021.12.08 12:26:49     39.78       9.93

Pass Statistics
    Maximum Elevation:
2021.12.08 12:24:02    342.62      23.97


== SATELLITE PASS (Now + 2412 minutes) ==
Time (EST)             Az (deg)   El (deg)
------------------------------------------
2021.12.08 13:59:06    319.62      10.06
2021.12.08 14:00:06    335.47      14.29
2021.12.08 14:01:06    356.94      16.91
2021.12.08 14:02:06     20.10      16.01
2021.12.08 14:03:06     39.01      12.33
2021.12.08 14:03:39     46.91       9.93

Pass Statistics
    Maximum Elevation:
2021.12.08 14:01:22      3.23      17.04


== SATELLITE PASS (Now + 2508 minutes) ==
Time (EST)             Az (deg)   El (deg)
------------------------------------------
2021.12.08 15:35:33    316.67      10.00
2021.12.08 15:36:33    326.72      16.94
2021.12.08 15:37:33    346.11      26.11
2021.12.08 15:38:33     21.88      32.39
2021.12.08 15:39:33     58.45      26.61
2021.12.08 15:40:33     78.60      17.34
2021.12.08 15:41:33     88.98      10.26
2021.12.08 15:41:36     89.36       9.97

Pass Statistics
    Maximum Elevation:
2021.12.08 15:38:35     23.27      32.40


== SATELLITE PASS (Now + 2604 minutes) ==
Time (EST)             Az (deg)   El (deg)
------------------------------------------
2021.12.08 17:12:01    291.16      10.05
2021.12.08 17:13:01    283.26      17.56
2021.12.08 17:14:01    266.15      28.81
2021.12.08 17:15:01    226.18      39.25
2021.12.08 17:16:01    181.12      31.54
2021.12.08 17:17:01    160.50      19.47
2021.12.08 17:18:01    151.32      11.28
2021.12.08 17:18:13    150.11       9.99

Pass Statistics
    Maximum Elevation:
2021.12.08 17:15:07    220.92      39.39


